[
  {
    "raw_address": "13001 Starkey Road , Largo, FL 33773",
    "county": "Pinellas",
    "municipality": "Pinellas",
    "name": "Starkey Lakes Corporate Center",
    "source": "https://www.votepinellas.com/Election-Information/Ballot-Drop-off-Locations",
    "state": "Florida",
    "stateAbbreviation": "FL",
    "type": "other",
    "zip": "33773",
    "city": "Largo",
    "notes": "Drive-thru Location",
    "phone": "",
    "schedule": "M-F 8a - 5p; 8a -7p Tue Nov 3",
    "addr_2": "",
    "address": "13001 Starkey Road",
    "latitude": 27.8900498,
    "longitude": -82.7584831
  },
  {
    "raw_address": "315 Court St., Room 117 , Clearwater, FL 33756",
    "county": "Pinellas",
    "municipality": "Pinellas",
    "name": "Pinellas County Courthouse",
    "source": "https://www.votepinellas.com/Election-Information/Ballot-Drop-off-Locations",
    "state": "Florida",
    "stateAbbreviation": "FL",
    "type": "other",
    "zip": "33756",
    "city": "Clearwater",
    "notes": "",
    "phone": "",
    "schedule": "M-F 8a - 5p; 8a -7p Tue Nov 3",
    "addr_2": "",
    "address": "315 Court Street Room 117",
    "latitude": 27.9619193,
    "longitude": -82.8013845
  },
  {
    "raw_address": "501 First Ave. N, (Fifth St. North entrance) , St. Petersburg, FL 33701",
    "county": "Pinellas",
    "municipality": "Pinellas",
    "name": "County Building",
    "source": "https://www.votepinellas.com/Election-Information/Ballot-Drop-off-Locations",
    "state": "Florida",
    "stateAbbreviation": "FL",
    "type": "other",
    "zip": "33701",
    "city": "St. Petersburg",
    "notes": "",
    "phone": "",
    "schedule": "M-F 8a - 5p; 8a -7p Tue Nov 3",
    "addr_2": "",
    "address": "501 1st Ave N ",
    "latitude": 27.7725588,
    "longitude": -82.64053679999999
  },
  {
    "raw_address": "1617 49th St. S. , Gulfport, FL 33707",
    "county": "Pinellas",
    "municipality": "Pinellas",
    "name": "Gulfport Neighborhood Center",
    "source": "https://www.votepinellas.com/Election-Information/Ballot-Drop-off-Locations",
    "state": "Florida",
    "stateAbbreviation": "FL",
    "type": "other",
    "zip": "33707",
    "city": "Gulfport",
    "notes": "Drive-thru Location\nNo Ballot Drop Off Election Day",
    "phone": "",
    "schedule": "Monday \u2013 Friday, 8:00 a.m. \u2013 3:00 p.m. thru Nov 2",
    "addr_2": "",
    "address": "1617 49th St S ",
    "latitude": 27.7543734,
    "longitude": -82.70005510000001
  },
  {
    "raw_address": "1500 16th St. , Palm Harbor\r, FL 34683",
    "county": "Pinellas",
    "municipality": "Pinellas",
    "name": "Centre of Palm Harbor",
    "source": "https://www.votepinellas.com/Election-Information/Ballot-Drop-off-Locations",
    "state": "Florida",
    "stateAbbreviation": "FL",
    "type": "other",
    "zip": "34683",
    "city": "Palm Harbor\r",
    "notes": "Drive-thru Location\nNo Ballot Drop Off Election Day",
    "phone": "",
    "schedule": "Monday \u2013 Sunday, 7:00 a.m. \u2013 7:00 p.m.\nMonday, November 2nd, 8:00 a.m. \u2013 5:00 p.m.",
    "addr_2": "",
    "address": "1500 16th St ",
    "latitude": 28.0816741,
    "longitude": -82.7566265
  },
  {
    "raw_address": "13805 58th St. N , Clearwater, FL 33765",
    "county": "Pinellas",
    "municipality": "Pinellas",
    "name": "EpiCenter at St. Petersburg College",
    "source": "https://www.votepinellas.com/Election-Information/Ballot-Drop-off-Locations",
    "state": "Florida",
    "stateAbbreviation": "FL",
    "type": "other",
    "zip": "33765",
    "city": "Clearwater",
    "notes": "Drive-thru Location\nNo Ballot Drop Off Election Day",
    "phone": "",
    "schedule": "Monday \u2013 Friday, 10:00 a.m. \u2013 5:00 p.m.  thru Nov 2",
    "addr_2": "",
    "address": "13805 58th St N ",
    "latitude": 27.8973966,
    "longitude": -82.71178929999999
  },
  {
    "raw_address": "1 Tropicana Drive , St Petersburg, FL 33705",
    "county": "Pinellas",
    "municipality": "Pinellas",
    "name": "Tropicana Field",
    "source": "https://www.votepinellas.com/Election-Information/Ballot-Drop-off-Locations",
    "state": "Florida",
    "stateAbbreviation": "FL",
    "type": "other",
    "zip": "33705",
    "city": "St Petersburg",
    "notes": "Drive-thru Location\nNo Ballot Drop Off Election Day\n*Weather contingent",
    "phone": "",
    "schedule": "Monday \u2013 Sunday 8:00 a.m. \u2013 5:00 p.m.  thru Nov 2",
    "addr_2": "",
    "address": "1 Tropicana Dr. ",
    "latitude": 27.768188,
    "longitude": -82.653408
  },
  {
    "raw_address": "138 E. Lemon St , Tarpon Springs, FL 34689",
    "county": "Pinellas",
    "municipality": "Pinellas",
    "name": "Tarpon Springs Public Library",
    "source": "https://www.votepinellas.com/Election-Information/Ballot-Drop-off-Locations",
    "state": "Florida",
    "stateAbbreviation": "FL",
    "type": "other",
    "zip": "34689",
    "city": "Tarpon Springs",
    "notes": "No Ballot Drop Off Election Day",
    "phone": "",
    "schedule": "Monday \u2013 Friday, 10:00 a.m. \u2013 5:00 p.m.  thru Nov 2\nSaturday, 10:00 a.m. \u2013 4:00 p.m.",
    "addr_2": "",
    "address": "138 E Lemon St ",
    "latitude": 28.1446367,
    "longitude": -82.7552335
  },
  {
    "raw_address": "400 St. Petersburg Dr. E. , Oldsmar, FL 34677",
    "county": "Pinellas",
    "municipality": "Pinellas",
    "name": "Oldsmar Public Library",
    "source": "https://www.votepinellas.com/Election-Information/Ballot-Drop-off-Locations",
    "state": "Florida",
    "stateAbbreviation": "FL",
    "type": "other",
    "zip": "34677",
    "city": "Oldsmar",
    "notes": "No Ballot Drop Off Election Day",
    "phone": "",
    "schedule": "Monday \u2013 Saturday, 9:00 a.m. \u2013 4:00 p.m.  thru Nov 2",
    "addr_2": "",
    "address": "400 St Petersburg Dr E ",
    "latitude": 28.033516,
    "longitude": -82.6603489
  },
  {
    "raw_address": "3745 9th Ave. N. , St. Petersburg , FL 33713",
    "county": "Pinellas",
    "municipality": "Pinellas",
    "name": "St. Petersburg Main Library",
    "source": "https://www.votepinellas.com/Election-Information/Ballot-Drop-off-Locations",
    "state": "Florida",
    "stateAbbreviation": "FL",
    "type": "other",
    "zip": "33713",
    "city": "St. Petersburg ",
    "notes": "No Ballot Drop Off Election Day",
    "phone": "",
    "schedule": "Monday \u2013 Saturday, 10:00 a.m. \u2013 4:00 p.m. thru Nov 2",
    "addr_2": "",
    "address": "3745 9th Ave N ",
    "latitude": 27.7816897,
    "longitude": -82.68426769999999
  },
  {
    "raw_address": "4125 East Lake Rd. , Palm Harbor\r, FL 34685",
    "county": "Pinellas",
    "municipality": "Pinellas",
    "name": "East Lake Community Library",
    "source": "https://www.votepinellas.com/Election-Information/Ballot-Drop-off-Locations",
    "state": "Florida",
    "stateAbbreviation": "FL",
    "type": "other",
    "zip": "34685",
    "city": "Palm Harbor\r",
    "notes": "No Ballot Drop Off Election Day",
    "phone": "",
    "schedule": "Monday \u2013 Saturday, 10:00 a.m. \u2013 4:00 p.m. thru Nov 2",
    "addr_2": "",
    "address": "4125 E Lake Rd S ",
    "latitude": 28.1111196,
    "longitude": -82.6936937
  },
  {
    "raw_address": "1663 Gulf to Bay Blvd. , Clearwater, FL 33756",
    "county": "Pinellas",
    "municipality": "Pinellas",
    "name": "Gulf to Bay Tax Collector Office",
    "source": "https://www.votepinellas.com/Election-Information/Ballot-Drop-off-Locations",
    "state": "Florida",
    "stateAbbreviation": "FL",
    "type": "other",
    "zip": "33756",
    "city": "Clearwater",
    "notes": "No Ballot Drop Off Election Day",
    "phone": "",
    "schedule": "Monday \u2013 Friday, 8:00 a.m. \u2013 5:00 p.m. thru Nov 2",
    "addr_2": "",
    "address": "1663 Gulf to Bay Blvd ",
    "latitude": 27.9594823,
    "longitude": -82.76812009999999
  },
  {
    "raw_address": "9200 113th St. N. , Seminole, FL 33772",
    "county": "Pinellas",
    "municipality": "Pinellas",
    "name": "Seminole Community Library",
    "source": "https://www.votepinellas.com/Election-Information/Ballot-Drop-off-Locations",
    "state": "Florida",
    "stateAbbreviation": "FL",
    "type": "other",
    "zip": "33772",
    "city": "Seminole",
    "notes": "No Ballot Drop Off Election Day",
    "phone": "",
    "schedule": "Monday \u2013 Friday, 9:00 a.m. \u2013 4:00 p.m.\nSaturday, 10:00 a.m. \u2013 4:00 p.m\n thru Nov 2",
    "addr_2": "",
    "address": "C.W. Bill Young University Partnership Center Building, 9200 113th St N ",
    "latitude": 27.8579032,
    "longitude": -82.7986615
  },
  {
    "raw_address": "1059 18th Ave. S. , St. Petersburg, FL 33705",
    "county": "Pinellas",
    "municipality": "Pinellas",
    "name": "James Weldon Johnson Branch Library",
    "source": "https://www.votepinellas.com/Election-Information/Ballot-Drop-off-Locations",
    "state": "Florida",
    "stateAbbreviation": "FL",
    "type": "other",
    "zip": "33705",
    "city": "St. Petersburg",
    "notes": "No Ballot Drop Off Election Day",
    "phone": "",
    "schedule": "Monday \u2013 Friday, 10:00 a.m. \u2013 4:00 p.m.\nSaturday, NOON. \u2013 4:00 p.m\n thru Nov 2",
    "addr_2": "",
    "address": "1059 18th Ave S ",
    "latitude": 27.7525818,
    "longitude": -82.6494414
  },
  {
    "raw_address": "29399 US Hwy. 19 N , Clearwater, FL 33761",
    "county": "Pinellas",
    "municipality": "Pinellas",
    "name": "North County Tax Collector Office",
    "source": "https://www.votepinellas.com/Election-Information/Ballot-Drop-off-Locations",
    "state": "Florida",
    "stateAbbreviation": "FL",
    "type": "other",
    "zip": "33761",
    "city": "Clearwater",
    "notes": "No Ballot Drop Off Election Day",
    "phone": "",
    "schedule": "Monday \u2013 Friday, 8:00 a.m. \u2013 5:00 p.m. thru Nov 2",
    "addr_2": "",
    "address": "29399 US Hwy 19 N ",
    "latitude": 28.0397959,
    "longitude": -82.73698999999999
  },
  {
    "raw_address": "7770 52nd St. , Pinellas Park, FL 33781",
    "county": "Pinellas",
    "municipality": "Pinellas",
    "name": "Barbara S. Ponce Public Library",
    "source": "https://www.votepinellas.com/Election-Information/Ballot-Drop-off-Locations",
    "state": "Florida",
    "stateAbbreviation": "FL",
    "type": "other",
    "zip": "33781",
    "city": "Pinellas Park",
    "notes": "No Ballot Drop Off Election Day",
    "phone": "",
    "schedule": "Monday \u2013 Saturday, 9:00 a.m. \u2013 4:00 p.m. thru Nov 2",
    "addr_2": "",
    "address": "7770 52nd St N ",
    "latitude": 27.8423989,
    "longitude": -82.7046153
  },
  {
    "raw_address": "1067 62nd Ave. S. , St. Petersburg, FL 33705",
    "county": "Pinellas",
    "municipality": "Pinellas",
    "name": "Skyway Plaza Tax Collector Office",
    "source": "https://www.votepinellas.com/Election-Information/Ballot-Drop-off-Locations",
    "state": "Florida",
    "stateAbbreviation": "FL",
    "type": "other",
    "zip": "33705",
    "city": "St. Petersburg",
    "notes": "No Ballot Drop Off Election Day",
    "phone": "",
    "schedule": "Monday \u2013 Friday, 8:00 a.m. \u2013 5:00 p.m. thru Nov 2",
    "addr_2": "",
    "address": "1067 62nd Ave S ",
    "latitude": 27.7130455,
    "longitude": -82.6490115
  },
  {
    "raw_address": "101 2nd St. N. , Safety Harbor, FL 34695",
    "county": "Pinellas",
    "municipality": "Pinellas",
    "name": "Safety Harbor Public Library",
    "source": "https://www.votepinellas.com/Election-Information/Ballot-Drop-off-Locations",
    "state": "Florida",
    "stateAbbreviation": "FL",
    "type": "other",
    "zip": "34695",
    "city": "Safety Harbor",
    "notes": "No Ballot Drop Off Election Day",
    "phone": "",
    "schedule": "Monday \u2013 Saturday, 10:00 a.m. \u2013 5:00 p.m. thru Nov 2",
    "addr_2": "",
    "address": "101 2nd St N ",
    "latitude": 27.9917655,
    "longitude": -82.68837839999999
  },
  {
    "raw_address": "223 Douglas Ave. , Dunedin , FL 34698",
    "county": "Pinellas",
    "municipality": "Pinellas",
    "name": "Dunedin Library",
    "source": "https://www.votepinellas.com/Election-Information/Ballot-Drop-off-Locations",
    "state": "Florida",
    "stateAbbreviation": "FL",
    "type": "other",
    "zip": "34698",
    "city": "Dunedin ",
    "notes": "No Ballot Drop Off Election Day",
    "phone": "",
    "schedule": "Monday \u2013 Saturday, 10:00 a.m. \u2013 5:00 p.m. thru Nov 2",
    "addr_2": "",
    "address": "223 Douglas Ave ",
    "latitude": 28.0021438,
    "longitude": -82.7864917
  },
  {
    "raw_address": "120 Central Park Dr , Largo, FL 33771",
    "county": "Pinellas",
    "municipality": "Pinellas",
    "name": "Largo Public Library",
    "source": "https://www.votepinellas.com/Election-Information/Ballot-Drop-off-Locations",
    "state": "Florida",
    "stateAbbreviation": "FL",
    "type": "other",
    "zip": "33771",
    "city": "Largo",
    "notes": "No Ballot Drop Off Election Day",
    "phone": "",
    "schedule": "Monday \u2013 Saturday, 10:00 a.m. \u2013 5:00 p.m. thru Nov 2",
    "addr_2": "",
    "address": "120 Central Park Dr ",
    "latitude": 27.9138513,
    "longitude": -82.7826711
  },
  {
    "raw_address": "861 70th Ave N. , St. Petersburg, FL 33702",
    "county": "Pinellas",
    "municipality": "Pinellas",
    "name": "North Community Library",
    "source": "https://www.votepinellas.com/Election-Information/Ballot-Drop-off-Locations",
    "state": "Florida",
    "stateAbbreviation": "FL",
    "type": "other",
    "zip": "33702",
    "city": "St. Petersburg",
    "notes": "No Ballot Drop Off Election Day",
    "phone": "",
    "schedule": "Monday \u2013 Saturday, 10:00 a.m. \u2013 5:00 p.m. thru Nov 2",
    "addr_2": "",
    "address": "861 70th Ave N ",
    "latitude": 27.8359561,
    "longitude": -82.64585439999999
  },
  {
    "raw_address": "7470 Gulf Blvd. , St. Pete Beach, FL 33706",
    "county": "Pinellas",
    "municipality": "Pinellas",
    "name": "St. Pete Beach Public Library",
    "source": "https://www.votepinellas.com/Election-Information/Ballot-Drop-off-Locations",
    "state": "Florida",
    "stateAbbreviation": "FL",
    "type": "other",
    "zip": "33706",
    "city": "St. Pete Beach",
    "notes": "No Ballot Drop Off Election Day",
    "phone": "",
    "schedule": "Monday \u2013 Friday, 10:00 a.m. \u2013 5:00 p.m.\nSaturday, 10:00 a.m. \u2013 2:00 p.m.\n thru Nov 2",
    "addr_2": "",
    "address": "7470 Gulf Blvd ",
    "latitude": 27.7414541,
    "longitude": -82.7520862
  },
  {
    "raw_address": "7891 26th Ave N. , St. Petersburg, FL 33710",
    "county": "Pinellas",
    "municipality": "Pinellas",
    "name": "Walter Fuller Recreation Center",
    "source": "https://www.votepinellas.com/Election-Information/Ballot-Drop-off-Locations",
    "state": "Florida",
    "stateAbbreviation": "FL",
    "type": "other",
    "zip": "33710",
    "city": "St. Petersburg",
    "notes": "No Ballot Drop Off Election Day",
    "phone": "",
    "schedule": "Monday \u2013 Friday, 10:00 a.m. \u2013 5:00 p.m. thru Nov 2",
    "addr_2": "",
    "address": "7891 26th Ave N ",
    "latitude": 27.7955667,
    "longitude": -82.7475619
  },
  {
    "raw_address": "2642 Sabal Springs Drive , Clearwater, FL 33761",
    "county": "Pinellas",
    "municipality": "Pinellas",
    "name": "Clearwater Countryside Library",
    "source": "https://www.votepinellas.com/Election-Information/Ballot-Drop-off-Locations",
    "state": "Florida",
    "stateAbbreviation": "FL",
    "type": "other",
    "zip": "33761",
    "city": "Clearwater",
    "notes": "No Ballot Drop Off Election Day",
    "phone": "",
    "schedule": "Monday \u2013 Thursday, 10:00 a.m. \u2013 5:00 p.m.\nFriday \u2013 Saturday, noon \u2013 5:00 p.m.\n thru Nov 2",
    "addr_2": "",
    "address": "2642 Sabal Springs Dr ",
    "latitude": 28.0231212,
    "longitude": -82.7278862
  },
  {
    "raw_address": "3200 34th St. S , St. Petersburg, FL 33711",
    "county": "Pinellas",
    "municipality": "Pinellas",
    "name": "SPC Allstate Center",
    "source": "https://www.votepinellas.com/Election-Information/Ballot-Drop-off-Locations",
    "state": "Florida",
    "stateAbbreviation": "FL",
    "type": "other",
    "zip": "33711",
    "city": "St. Petersburg",
    "notes": "No Ballot Drop Off Election Day",
    "phone": "",
    "schedule": "Monday \u2013 Sunday, 7:00 a.m. \u2013 7:00 p.m.\nMonday, November 2nd, 8:00 a.m. \u2013 5:00 p.m.\n thru Nov 2",
    "addr_2": "",
    "address": "3200 34th St S ",
    "latitude": 27.738075,
    "longitude": -82.678108
  }
]